,City,Country,Max Temp,Current Description,Lat,Lng,Hotel Name
0,Mataura,NZ,35.47,overcast clouds,-46.1927,168.8643,Ellie's Villa
1,Hobart,AU,48.06,scattered clouds,-42.8794,147.3294,Mantra on Collins Hobart
2,Auki,SB,74.16,clear sky,-8.7676,160.7034,Auki Motel
3,Sambava,MG,69.66,clear sky,-14.2667,50.1667,Melrose
4,Namwala,ZM,65.32,clear sky,-15.7504,26.4384,Corner Point Lodge
5,Ushuaia,AR,53.26,broken clouds,-54.8,-68.3,Albatros Hotel
6,New Norfolk,AU,47.71,overcast clouds,-42.7826,147.0587,The Shingles Riverside Cottages
7,Busselton,AU,48.04,clear sky,-33.65,115.3333,Observatory Guest House
8,Cayenne,GF,85.08,broken clouds,4.9333,-52.3333,Hôtel Le Dronmi
9,Hilo,US,74.8,light rain,19.7297,-155.09,Hilo Hawaiian Hotel
10,Bayan,CN,66.34,scattered clouds,46.0833,127.4,Wanhao Inn
11,Bengkulu,ID,76.19,moderate rain,-3.8004,102.2655,Grage Hotel Bengkulu
12,Avarua,CK,73.45,few clouds,-21.2078,-159.775,Paradise Inn
13,Vaini,TO,64.56,scattered clouds,-21.2,-175.2,Keleti Beach Resort
14,Lorengau,PG,79.57,broken clouds,-2.0226,147.2712,Lorengau Harbourside Hotel
15,Kandava,LV,57.83,broken clouds,57.0409,22.7747,Tourism and Relaxation Centre Plosti
16,Kruisfontein,ZA,58.89,overcast clouds,-34.0033,24.7314,Oyster Bay House Rental
17,Castro,BR,61.43,few clouds,-24.7911,-50.0119,CHACARA BAILLY
18,Port Alfred,ZA,62.71,few clouds,-33.5906,26.891,The Halyards Hotel
19,Ilulissat,GL,48.22,clear sky,69.2167,-51.1,Hotel Arctic
20,Grand Gaube,MU,70.2,scattered clouds,-20.0064,57.6608,Veranda Paul et Virginie Hotel & Spa
21,Okhotsk,RU,52.79,clear sky,59.3833,143.3,
22,Ayer Tawar,MY,80.89,light rain,4.2954,100.7548,Ayer Tawar CK Homestay
23,Whitehorse,CA,63.37,broken clouds,60.7161,-135.0538,The Sternwheeler Hotel & Conference Centre
24,Rikitea,PF,71.55,few clouds,-23.1203,-134.9692,People ThankYou
25,East London,ZA,63.54,few clouds,-33.0153,27.9116,Tu Casa
26,Emerald,AU,50.14,clear sky,-23.5333,148.1667,The Irish Village
27,Bredasdorp,ZA,58.32,scattered clouds,-34.5322,20.0403,Bredasdorp Country Manor
28,Mahebourg,MU,70.09,light rain,-20.4081,57.7,Shandrani Beachcomber Resort & Spa
29,San Cristobal,VE,77.16,overcast clouds,7.7669,-72.225,Posada Villaven C.A.
30,Gorno-Altaysk,RU,59.11,scattered clouds,51.9561,85.955,"Otel' "" Ryzhiy Pos"""
31,Khatanga,RU,63.57,overcast clouds,71.9667,102.5,"Gostinitsa ""Zapolyar'ye"""
32,Punta Arenas,CL,57.31,clear sky,-53.15,-70.9167,Hotel Dreams Del Estrecho
33,Kaitangata,NZ,40.95,overcast clouds,-46.2817,169.8464,Kaitangata Motor Camp
34,Dunmore East,IE,64.78,broken clouds,52.1514,-6.9861,The Strand Inn
35,Georgetown,MY,82.33,few clouds,5.4112,100.3354,Cititel Penang
36,Cabo San Lucas,MX,93.18,broken clouds,22.8909,-109.9124,Hotel Tesoro Los Cabos
37,Grimma,DE,70.57,overcast clouds,51.2333,12.7167,Hotel Kloster Nimbschen
38,Klaksvik,FO,58.12,overcast clouds,62.2266,-6.589,Airbnb rooms
39,Mar Del Plata,AR,62.62,clear sky,-38.0023,-57.5575,Gran Hotel Mar del Plata
40,Cape Town,ZA,59.88,few clouds,-33.9258,18.4232,Southern Sun Waterfront Cape Town
41,Tsogni,GA,74.43,broken clouds,-2.7942,10.0988,
42,Seoul,KR,78.31,clear sky,37.5683,126.9778,롯데호텔 서울
43,Kailua,US,78.78,scattered clouds,21.4022,-157.7394,Sheffield House Bed & Breakfast
44,Zaysan,KZ,64.26,broken clouds,47.4667,84.8667,Ерлан үй
45,Barrow,US,44.62,scattered clouds,71.2906,-156.7887,King Eider Inn
46,Nanortalik,GL,45.91,overcast clouds,60.1432,-45.2371,Hotel Kap Farvel
47,Port Hardy,CA,64.58,broken clouds,50.6996,-127.4199,Airport Inn
48,Bluff,NZ,35.8,overcast clouds,-46.6,168.3333,Bluff Homestead - Guesthouse & Campervan Park
49,Cockburn Town,TC,85.96,scattered clouds,21.4612,-71.1419,Osprey Beach Hotel
50,Arman,RU,45.21,broken clouds,59.7,150.1667,
51,Mount Isa,AU,55.17,clear sky,-20.7333,139.5,ibis Styles Mt Isa Verona
52,Alofi,NU,57.09,scattered clouds,-19.0595,-169.9187,Taloa Heights
53,Albany,US,78.82,overcast clouds,42.6001,-73.9662,
54,Bethel,US,76.1,clear sky,41.3712,-73.414,Courtyard by Marriott Danbury
55,Talnakh,RU,69.04,scattered clouds,69.4865,88.3972,Talnakh Hotel
56,Batticaloa,LK,81.36,overcast clouds,7.7102,81.6924,Grand Star Guest House
57,Kapaa,US,80.92,light rain,22.0752,-159.319,Sheraton Kauai Coconut Beach Resort
58,Umarkot,PK,86.2,overcast clouds,25.3616,69.7362,Al-Qamar Boys Hostel
59,Lovington,US,79.18,few clouds,32.944,-103.3485,Buena vida rv parks
60,Pevek,RU,38.59,overcast clouds,69.7008,170.3133,Hotel ABC
61,Codrington,AU,51.19,scattered clouds,-38.2667,141.9667,Codrington Gardens Bed And Breakfast
62,Atuona,PF,77.95,overcast clouds,-9.8,-139.0333,Villa Enata
63,Chuy,UY,59.29,broken clouds,-33.6971,-53.4616,Nuevo Hotel Plaza
64,Mareeba,AU,57.92,few clouds,-17.0,145.4333,Trinity Plains Tourist Park
65,Taunggyi,MM,62.56,overcast clouds,20.7833,97.0333,True Treasure Hotel
66,Muros,ES,74.98,broken clouds,42.7762,-9.0603,Apartment Av. Castelao
67,Coahuayana,MX,89.08,broken clouds,18.7333,-103.6833,El rranchito michuacan de ocampos
68,Hermanus,ZA,58.89,broken clouds,-34.4187,19.2345,Misty Waves Boutique Hotel
69,Ushumun,RU,58.33,light rain,52.7833,126.5333,
70,Pundaguitan,PH,83.32,scattered clouds,6.3711,126.1689,Leonardo Family Beach House 1
71,Saint-Philippe,RE,67.55,light rain,-21.3585,55.7679,"Chambres d'hôte ""La Trinité"""
72,Kamenka,RU,66.88,broken clouds,51.3223,42.7678,
73,Meadow Lake,US,82.81,clear sky,34.8014,-106.5436,TumbleWeed RV Park
74,Broome,US,79.63,clear sky,42.2506,-75.833,Chenango Valley State Park
75,Tuktoyaktuk,CA,53.6,scattered clouds,69.4541,-133.0374,End of The Road Ltd.
76,Padang,ID,76.26,overcast clouds,-0.9492,100.3543,Mercure Padang
77,Kavieng,PG,81.03,broken clouds,-2.5744,150.7967,Nusa Island Retreat
78,Presidencia Roque Saenz Pena,AR,69.22,overcast clouds,-26.7852,-60.4388,Hotel Gualok
79,Atasu,KZ,71.55,few clouds,48.6814,71.6433,Dostyk
81,Upernavik,GL,45.1,few clouds,72.7868,-56.1549,Gina's Guesthouse - Upernavik
82,Rancho Palos Verdes,US,95.27,clear sky,33.7445,-118.387,Terranea Resort
83,Korla,CN,85.57,overcast clouds,41.7597,86.1469,Gulisitan Hotel
84,Vila Velha,BR,73.35,few clouds,-20.3297,-40.2925,Quality Suites Vila Velha
85,Petropavlovsk-Kamchatskiy,RU,39.79,clear sky,53.0452,158.6483,The Hotel Petropavlovsky
86,Verkhnevilyuysk,RU,60.12,overcast clouds,63.4453,120.3167,Gostinitsa Mila
87,Aksay,RU,88.25,few clouds,47.26,39.87,Chernaya Zhemchuzhina
88,Constitucion,CL,58.68,scattered clouds,-35.3333,-72.4167,Hotel Boutique Las Azucenas
89,Rafaela,AR,73.06,clear sky,-31.2503,-61.4867,Parra Hotel & Suites
90,Longyearbyen,SJ,46.24,broken clouds,78.2186,15.6401,"Radisson Blu Polar Hotel, Spitsbergen"
91,Amahai,ID,75.6,overcast clouds,-3.3333,128.9167,HOTEL ISABELA
92,Lompoc,US,70.84,mist,34.6391,-120.4579,"Holiday Inn Express Lompoc, an IHG Hotel"
93,Qaqortoq,GL,50.5,overcast clouds,60.7167,-46.0333,Hotel Qaqortoq
94,Huanren,CN,71.4,overcast clouds,41.2647,125.3667,Dynasty Wunvshan Ice Chateau
96,Yuancheng,CN,73.62,broken clouds,36.652,107.7896,
97,Sao Filipe,CV,78.04,overcast clouds,14.8961,-24.4956,Hotel Xaguate
98,Cody,US,82.2,clear sky,44.5263,-109.0565,"Holiday Inn Cody-at Buffalo Bill Village, an IHG Hotel"
99,Praia Da Vitoria,PT,80.85,few clouds,38.7333,-27.0667,Hotel Branco I
100,Calolziocorte,IT,69.51,heavy intensity rain,45.7954,9.4377,Osteria Marascia
101,Jamestown,US,78.03,clear sky,42.097,-79.2353,Hampton Inn & Suites Jamestown
102,Yellowknife,CA,54.32,overcast clouds,62.456,-114.3525,The Explorer Hotel
103,Bandarbeyla,SO,77.41,clear sky,9.4942,50.8122,JABIR HOTEL
104,Jimma,ET,59.34,light rain,7.6667,36.8333,Jimma Central Hotel
105,Acarau,BR,86.95,scattered clouds,-2.8856,-40.12,castelo pizzaria
106,Maceio,BR,80.04,broken clouds,-9.6658,-35.7353,Poutur Pousada
107,Pochinki,RU,68.14,scattered clouds,54.6988,44.8668,Дом для заморских гостей
108,Dafeng,CN,84.15,broken clouds,23.4517,108.5881,Shenglong Hotel
110,Musoma,TZ,73.65,broken clouds,-1.5,33.8,New Peninsula Hotel
111,Geraldton,AU,48.61,clear sky,-28.7667,114.6,Broadwater Mariner Resort
112,Sitka,US,64.29,light rain,57.0531,-135.33,Westmark Sitka
113,Fortuna,US,52.14,few clouds,40.5982,-124.1573,Super 8 by Wyndham Fortuna
114,Havre-Saint-Pierre,CA,64.76,clear sky,50.2334,-63.5986,Auberge Niapiskau
115,Touros,BR,81.5,broken clouds,-5.1989,-35.4608,INN NEW HORIZON
116,Lieksa,FI,55.18,overcast clouds,63.3167,30.0167,Kaatrahovi
117,Qaanaaq,GL,45.46,broken clouds,77.484,-69.3632,Qaanaaq Hotel
118,Hamilton,US,83.48,broken clouds,39.1834,-84.5333,Six Acres Bed & Breakfast
120,Torbay,CA,74.88,overcast clouds,47.6666,-52.7314,Gallows Cove
121,Caraballeda,VE,88.38,broken clouds,10.6112,-66.8522,Hotel 15 Letras
122,Portland,US,83.61,clear sky,45.5234,-122.6762,Embassy Suites by Hilton Portland Downtown
123,Victor Harbor,AU,54.19,broken clouds,-35.5667,138.6167,McCracken Country Club
124,Mitu,CO,85.42,overcast clouds,1.1983,-70.1733,
125,Kavaratti,IN,81.45,overcast clouds,10.5669,72.642,Hotels in Lakshadweep Islands
126,Yulara,AU,46.24,clear sky,-25.2406,130.9889,Desert Gardens Hotel - Ayers Rock Resort
127,Binzhou,CN,79.56,overcast clouds,37.3667,118.0167,Hampton By Hilton Binzhou
128,Kaeo,NZ,59.32,moderate rain,-35.1,173.7833,Bushido Lodge
129,Airai,TL,55.54,scattered clouds,-8.9266,125.4092,Juvinal Martin
130,Liwan,PH,80.08,overcast clouds,17.5191,121.632,Castle Eatery
131,Faya,SA,71.71,broken clouds,18.3851,42.4509,املاك خالد الشعشوع
132,Ostrovnoy,RU,48.79,overcast clouds,68.0531,39.5131,
133,Zitiste,RS,84.22,broken clouds,45.485,20.5497,Restoran sa prenoćištem Žitište
134,Mansehra,PK,73.24,broken clouds,34.3333,73.2,Aashiana Hotel Manshera
135,Byron Bay,AU,51.87,clear sky,-28.65,153.6167,Backpackers Inn on the Beach
136,Mormugao,IN,79.07,broken clouds,15.4,73.8,Coconut Creek Resort
137,Kodiak,US,53.11,scattered clouds,57.79,-152.4072,Best Western Kodiak Inn And Convention Center
138,Ashqelon,IL,91.4,clear sky,31.6693,34.5715,Leonardo Ashkelon
139,Baykit,RU,61.95,scattered clouds,61.67,96.37,
140,Murgab,TM,89.47,scattered clouds,37.4966,61.9714,
141,Valky,UA,75.06,overcast clouds,49.8387,35.6207,Мотель 1
142,Guanambi,BR,82.4,scattered clouds,-14.2233,-42.7814,Leopoldo Hotel
143,Ceuta,ES,89.62,clear sky,35.8903,-5.3075,Ceuta Puerta de Africa
144,Honiara,SB,74.88,scattered clouds,-9.4333,159.95,Heritage Park Hotel
145,Hobyo,SO,77.45,overcast clouds,5.3505,48.5268,Halane Hotel and Restaurent
146,Ancud,CL,62.13,overcast clouds,-41.8697,-73.8203,Hotel Arena Gruesa
147,Iqaluit,CA,42.53,light rain,63.7506,-68.5145,Frobisher Inn
148,Tucurui,BR,94.78,scattered clouds,-3.7661,-49.6725,BBB Rooms Centro Tucurui PA
149,Saint-Pierre,RE,67.64,broken clouds,-21.3393,55.4781,Lindsey Hôtel
150,Olinda,BR,76.73,broken clouds,-8.0089,-34.8553,Hotel Albergue de Olinda
151,Saskylakh,RU,50.31,overcast clouds,71.9167,114.0833,
152,Tasiilaq,GL,53.76,overcast clouds,65.6145,-37.6368,The Red House
153,Tamandare,BR,75.83,overcast clouds,-8.7597,-35.1047,Pousada 100 Passos
154,Totskoye,RU,82.49,overcast clouds,52.5248,52.7623,Gostinitsa
155,Butaritari,KI,82.27,overcast clouds,3.0707,172.7902,Isles Sunset Lodge
156,Diamantino,BR,92.93,broken clouds,-14.4086,-56.4461,Hotel Delta
157,Puerto Ayora,EC,78.76,scattered clouds,-0.7393,-90.3518,Finch Bay Galapagos Hotel
158,Carnarvon,AU,51.87,clear sky,-24.8667,113.6333,Hospitality Carnarvon
159,Ketchikan,US,61.27,heavy intensity rain,55.3422,-131.6461,Snows Cove Lodge
160,Isangel,VU,67.28,overcast clouds,-19.55,169.2667,Tanna Lodge
161,Belaya Gora,RU,43.47,overcast clouds,68.5333,146.4167,
162,Vysokogornyy,RU,59.43,moderate rain,50.1167,139.15,
163,Alindao,CF,71.15,light rain,5.0267,21.2088,OCHA Alindao
164,Ribeira Grande,PT,79.2,few clouds,38.5167,-28.7,Quinta da Meia Eira
165,Provideniya,RU,53.56,overcast clouds,64.3833,-173.3,
166,Kirakira,SB,73.78,few clouds,-10.4544,161.9205,SanBiz Lodge
167,Antananarivo,MG,57.16,light intensity drizzle,-18.9137,47.5361,Hotel Carlton
168,Bubaque,GW,80.02,overcast clouds,11.2833,-15.8333,"Casa Dora, Bubaque"
169,Arys,KZ,88.02,scattered clouds,42.4252,68.795,Gostinitsa
170,Coquimbo,CL,60.53,scattered clouds,-29.9533,-71.3436,Punto de encuentro
171,Port Lincoln,AU,54.86,overcast clouds,-34.7333,135.8667,Port Lincoln Hotel
172,Obanazawa,JP,74.19,broken clouds,38.6033,140.4019,ビジネスホテル すがはら
173,Xuddur,SO,78.71,overcast clouds,4.1213,43.8894,Banjanay Hotel
174,Pomuch,MX,87.8,few clouds,20.1333,-90.1833,ALBERGUE IMPI
175,Gwanda,ZW,58.51,clear sky,-20.9333,29.0,Mafax Homeways
176,Nacala,MZ,69.96,light rain,-14.5428,40.6728,Nacala Plaza Business Design Hotel
177,Jiuquan,CN,70.59,clear sky,39.7432,98.5174,Jiuquan Hotel
178,Arraial Do Cabo,BR,71.56,few clouds,-22.9661,-42.0278,Pousada Porto Praia
179,Nikolskoye,RU,62.49,broken clouds,59.7035,30.7861,Tourist House - Sablino
180,Oschersleben,DE,69.75,broken clouds,52.0333,11.25,Hotel Motorsport Arena
181,Makasar,ID,73.45,few clouds,-5.14,119.4221,Hotel Horison Ultima Makassar
182,Bac Lieu,VN,80.28,overcast clouds,9.285,105.7244,Khách sạn Sài Gòn Bạc Liêu
183,Concordia,AR,68.07,clear sky,-31.393,-58.0209,Palmar Hotel Casino
184,Dikson,RU,48.92,broken clouds,73.5069,80.5464,
185,Kisesa,TZ,74.46,overcast clouds,-3.0833,34.15,
186,Alamogordo,US,81.14,few clouds,32.8995,-105.9603,Fairfield Inn & Suites by Marriott Alamogordo
187,Ouallam,NE,98.55,few clouds,14.3188,2.0866,
188,Coihueco,CL,52.54,mist,-36.6167,-71.8333,Frutillares Coihueco
189,Preobrazheniye,RU,71.83,overcast clouds,42.9019,133.9064,Campsite Orlan
190,Neuquen,AR,58.89,clear sky,-38.9516,-68.0591,Hotel del Comahue
191,Craig,US,72.84,clear sky,40.5153,-107.5464,"Candlewood Suites Craig-Northwest, an IHG Hotel"
192,Sioux Lookout,CA,84.27,smoke,50.1001,-91.917,Knobby's Fly-In Camps
193,Sorong,ID,77.56,overcast clouds,-0.8833,131.25,waigo splash hotel
194,Kemijarvi,FI,52.3,overcast clouds,66.7131,27.4306,Hotelli Kemijärvi
195,Cherskiy,RU,41.72,overcast clouds,68.75,161.3,Gostinitsa
196,Masyaf,SY,78.85,clear sky,35.0653,36.3406,Hotel restaurants and tourist Misyaf
197,Lithakia,GR,94.42,clear sky,37.7167,20.8333,Zante Plaza Hotel & Apartments
198,Mazamari,PE,87.01,broken clouds,-11.3258,-74.5308,Hospedaje Ratto
199,Te Anau,NZ,34.09,overcast clouds,-45.4167,167.7167,Kingsgate Hotel Te Anau
200,Bajil,YE,86.16,broken clouds,15.0584,43.2851,فندق حضرموت
201,Siddipet,IN,76.23,overcast clouds,18.1,78.85,Roads And Buildings (R&B) Guest House
202,Korem,ET,59.27,moderate rain,12.5058,39.5228,Lakomeliza Hotel
203,Ponta Do Sol,PT,79.72,broken clouds,32.6667,-17.1,Hotel do Campo
204,Bom Jesus,BR,94.17,scattered clouds,-9.0744,-44.3586,Hotel Brasão & Floricultura Bella Flor
205,Ashtabula,US,83.32,clear sky,41.7001,-80.7665,DFC Mobile Home Park & Sales
206,San Patricio,US,93.02,overcast clouds,28.017,-97.5169,"Motel 6 Sinton, TX"
207,Akureyri,IS,57.13,scattered clouds,65.6835,-18.0878,Icelandair Hotel Akureyri
208,Igarka,RU,62.47,broken clouds,67.4667,86.5833,"Zapolyar'ye, Gostinitsa"
209,Palmas,BR,93.07,few clouds,-10.2128,-48.3603,Hotel Lago da Palma
210,Rincon,US,80.85,overcast clouds,32.296,-81.2354,Days Inn Rincon
211,Ahuimanu,US,78.51,scattered clouds,21.4447,-157.8378,Paradise Bay Resort
212,Port Elizabeth,ZA,62.89,broken clouds,-33.918,25.5701,39 On Nile Guest House
213,Caxito,AO,73.53,few clouds,-8.5785,13.6643,
215,Zhezkazgan,KZ,80.64,scattered clouds,47.8043,67.7144,Hotel Zumrat
216,Bardiyah,LY,83.52,clear sky,31.7561,25.0865,بورتو بردية
217,San Nicolas,PH,80.01,overcast clouds,18.1725,120.5953,NORTHVIEW Hotel
218,Alugan,PH,79.95,overcast clouds,12.2188,125.4808,JM Lodge
219,Hirara,JP,82.09,overcast clouds,24.8,125.2833,Hotel Atoll Emerald Miyakojima
220,Kodinsk,RU,65.07,overcast clouds,58.6881,99.1844,
221,Sompeta,IN,83.44,overcast clouds,18.9333,84.6,Netaji's Home
222,Ayan,RU,52.72,overcast clouds,56.45,138.1667,Gostinitsa
223,Port-Gentil,GA,78.76,broken clouds,-0.7193,8.7815,Fengshui Residence
224,Hervey Bay,AU,52.03,clear sky,-25.2986,152.8535,Shelly Bay Resort
225,Kupang,ID,75.22,few clouds,-10.1667,123.5833,Hotel On The Rock by Prasanthi
226,Ipira,BR,77.88,overcast clouds,-12.1583,-39.7372,Pallace Hotel e Restaurante
227,Iquique,CL,60.84,clear sky,-20.2208,-70.1431,Backpacker`s Hostel Iquique
228,Zaragoza,ES,85.44,few clouds,41.6561,-0.8773,Hotel Goya
229,Matara,LK,78.53,overcast clouds,5.9485,80.5353,Amaloh Boutique Resort
230,Kijang,KR,80.33,clear sky,35.2442,129.2139,Samyang Beach Villa
231,Saint-Joseph,RE,66.56,broken clouds,-21.3667,55.6167,"""Plantation Bed and Breakfast"
232,Northam,GB,69.42,broken clouds,51.0333,-4.2167,Durrant House Hotel
233,Clyde River,CA,37.63,light intensity drizzle,70.4692,-68.5914,Qamaq Hotel
234,Ginda,IN,66.11,scattered clouds,30.6945,78.4932,Bal uma sankar hotel and restaurant
235,Sangar,RU,57.94,clear sky,63.9242,127.4739,
236,Krasnoselkup,RU,64.99,overcast clouds,65.7,82.4667,Krasnosel'kupnefteprodukt
237,Tual,ID,80.73,overcast clouds,-5.6667,132.75,Grand Vilia Hotel
238,Nioro,GM,82.81,overcast clouds,13.35,-15.75,
239,Fare,PF,79.21,overcast clouds,-16.7,-151.0167,Maitai Lapita Village Huahine
240,Faanui,PF,78.33,light rain,-16.4833,-151.75,Bora-Bora Pearl Beach Resort & Spa
241,Abha,SA,71.42,few clouds,18.2164,42.5053,Abha Hotel
242,Hami,CN,86.61,clear sky,42.8,93.45,Laoyutang Resort
243,Hilton Head Island,US,81.0,overcast clouds,32.2163,-80.7526,Disney’s Hilton Head Island Resort
244,Damietta,EG,87.69,clear sky,31.4165,31.8133,SULIMAN INN
245,Ngaoundere,CM,66.36,moderate rain,7.3167,13.5833,Hotel Mentong Palace
246,Margate,GB,70.18,broken clouds,51.3813,1.3862,Premier Inn Margate hotel
247,Sisimiut,GL,47.07,overcast clouds,66.9395,-53.6735,Hotel Sisimiut
248,Souillac,MU,70.18,light rain,-20.5167,57.5167,Shanti Maurice Resort & Spa
249,Vardo,NO,48.18,broken clouds,70.3705,31.1107,Vardø Hotel AS
250,San Quintin,MX,76.37,clear sky,30.4833,-115.95,Don Eddie's Sport Fishing Center
251,Chokurdakh,RU,37.2,broken clouds,70.6333,147.9167,
252,Hovd,MN,69.67,broken clouds,48.0056,91.6419,Hotel Khovd
253,Westport,US,76.75,broken clouds,41.1415,-73.3579,The Westport Inn
254,Merrill,US,81.81,clear sky,45.1805,-89.6835,Prairie Motel
255,Shimoda,JP,80.71,clear sky,34.6667,138.95,Shimoda Tokyu Hotel
256,Leshukonskoye,RU,56.59,broken clouds,64.8989,45.7622,Pryalitsa Hostel
257,Keti Bandar,PK,82.27,overcast clouds,24.1447,67.4497,Haji laloo memon house
258,Antofagasta,CL,66.22,clear sky,-23.65,-70.4,"Holiday Inn Express Antofagasta, an IHG Hotel"
259,Provost,CA,78.22,few clouds,52.3501,-110.2683,Canalta Hotel Provost
260,Dharchula,IN,73.74,overcast clouds,29.85,80.5333,Mahara Hotel
261,Dunedin,NZ,45.81,overcast clouds,-45.8742,170.5036,Scenic Hotel Southern Cross
262,Juegang,CN,80.98,clear sky,32.3174,121.1855,Rudong Y Hotel
263,Huarmey,PE,69.12,broken clouds,-10.0681,-78.1522,Hotel Miramar
264,Freeport,US,77.38,few clouds,40.6576,-73.5832,The Freeport Inn and Marina
265,Avera,US,82.71,scattered clouds,33.194,-82.5271,
266,Yabrud,SY,83.86,few clouds,33.9674,36.6574,المنزل
267,Rexburg,US,83.28,clear sky,43.826,-111.7897,AmericInn by Wyndham Rexburg BYUI
268,Pekalongan,ID,74.01,few clouds,-6.8886,109.6753,Namira Syariah Hotel
269,Saint George,US,99.07,clear sky,37.1041,-113.5841,Best Western Plus Abbey Inn
271,Severo-Kurilsk,RU,50.86,overcast clouds,50.6789,156.125,Апартаменты/Квартиры посуточно
272,Kaihua,CN,67.86,broken clouds,23.3687,104.28,Zhongyu Hotel
273,Wawa,NG,79.38,light rain,9.9022,4.4192,
274,Thompson,CA,53.76,smoke,55.7435,-97.8558,Burntwood Hotel
275,Mount Gambier,AU,49.91,overcast clouds,-37.8333,140.7667,The Commodore
276,Ahipara,NZ,57.38,overcast clouds,-35.1667,173.1667,Ahipara Holiday Park
277,Mecca,SA,93.4,overcast clouds,21.4267,39.8261,"Makkah Clock Royal Tower, A Fairmont Hotel"
278,Tiksi,RU,40.28,clear sky,71.6872,128.8694,Arktika
279,Porto Novo,BJ,80.42,overcast clouds,6.4965,2.6036,Tour Eiffel Hotel Benin
280,Kirishi,RU,61.77,overcast clouds,59.4471,32.0205,Sportivnaya
281,Codajas,BR,89.44,scattered clouds,-3.8367,-62.0569,Hotel Tucunaré
282,Ayagoz,KZ,66.79,broken clouds,47.9714,80.4392,Gostinitsa Nur
283,Bairiki,KI,77.0,broken clouds,1.3292,172.9752,Tarawa Boutique Hotel
284,Genhe,CN,56.57,overcast clouds,50.7833,121.5167,Companionship Hotel
285,Hithadhoo,MV,82.06,overcast clouds,-0.6,73.0833,Scoop Guest House
286,Yagodnoye,RU,40.75,overcast clouds,62.55,149.6667,Гостевой дом
287,Neyshabur,IR,82.65,scattered clouds,36.2133,58.7958,Amiran Hotel
288,Comodoro Rivadavia,AR,67.86,clear sky,-45.8667,-67.5,Austral Hotel
289,Rio Gallegos,AR,59.05,clear sky,-51.6226,-69.2181,Hotel Santa Cruz
290,Lebu,CL,59.95,broken clouds,-37.6167,-73.65,Hostal Las Lilas
291,Puerto Maldonado,PE,84.6,clear sky,-12.6,-69.1833,Wasai Hotel
292,Tapejara,BR,65.39,broken clouds,-28.0681,-52.0139,Hotel Fontana
293,Kidal,ML,96.78,few clouds,18.4411,1.4078,
294,Rajula,IN,80.51,overcast clouds,21.05,71.4333,Lion Lords Inn Rajula
295,Saquarema,BR,71.74,scattered clouds,-22.92,-42.5103,Hotel Fazenda Sol e Lua
296,Panjab,AF,58.44,scattered clouds,34.388,67.0233,
297,Siemiatycze,PL,64.26,overcast clouds,52.4272,22.8623,Hotel Kresowiak Siemiatycze
298,Bijie,CN,66.33,few clouds,27.3125,105.2942,Four Points by Sheraton Bijie
299,Bambous Virieux,MU,70.05,light rain,-20.3428,57.7575,Casa Tia Villa
300,Saint-Georges,GD,85.68,scattered clouds,12.0564,-61.7485,Radisson Grenada Beach Resort
301,Takoradi,GH,78.08,broken clouds,4.8845,-1.7554,Raybow International Hotel
302,Canmore,CA,76.75,broken clouds,51.0834,-115.3521,Blackstone Mountain Lodge by CLIQUE
303,Asau,RO,73.4,light rain,46.4333,26.4,Casa Mika Ciobanus
304,Pisco,PE,66.02,overcast clouds,-13.7,-76.2167,Hotel San Isidro Oficial
305,Sao Miguel Do Araguaia,BR,94.69,scattered clouds,-13.275,-50.1628,Hotel Executivo Palace
306,Kisangani,CD,77.65,few clouds,0.5167,25.2,Grand Ramela Hotel
307,Fort Nelson,CA,58.59,light intensity drizzle,58.8053,-122.7002,The Fort Nelson Hotel
308,Acapulco,MX,84.02,broken clouds,16.8634,-99.8901,HS Hotsson Smart Acapulco
309,Chissamba,AO,70.54,clear sky,-12.1667,17.3333,
310,Cananea,MX,90.82,clear sky,30.95,-110.3,Casas Montoya
311,Marawi,PH,71.65,overcast clouds,7.9986,124.2928,Derogongan Residence
312,Alice Springs,AU,36.95,clear sky,-23.7,133.8833,Desert Palms Alice Springs
313,Ratangarh,IN,90.39,scattered clouds,28.0833,74.6,Hotel Shri Laxmi Palace
314,Hargeysa,SO,74.19,scattered clouds,9.56,44.065,City Center Hotel
315,Ola,RU,47.82,overcast clouds,59.5833,151.2833,
316,Paredon,MX,85.33,overcast clouds,16.0333,-93.8667,Hotel Principal Paredon
317,Asfi,MA,74.21,clear sky,32.2994,-9.2372,Hôtel Abda
318,Darhan,MN,59.38,broken clouds,49.4867,105.9228,Buudai Hotel
319,Maralal,KE,62.42,broken clouds,1.0968,36.698,Ngari Hill Ecolodge
320,Alto Araguaia,BR,85.05,overcast clouds,-17.3147,-53.2153,Araguaia Palace Hotel
321,Tete,MZ,73.49,clear sky,-16.1564,33.5867,Zambeze Paraíso Misterioso
322,Flin Flon,CA,66.04,smoke,54.7682,-101.865,Victoria Inn Flin Flon
323,San Miguel De Cauri,PE,54.0,overcast clouds,-10.1,-76.5833,San Miguel de Cauri
324,Bongandanga,CD,75.54,broken clouds,1.5,21.05,
325,Tuatapere,NZ,35.82,overcast clouds,-46.1333,167.6833,Ron and Tony's Bed & Breakfast
326,Wakkanai,JP,73.99,broken clouds,45.4094,141.6739,Hyōsetsu-sō
327,Gornyak,RU,60.53,broken clouds,50.9942,81.4661,Komfort
328,Perm,RU,74.66,clear sky,58.0174,56.2855,Otel' Tsvety
329,Shelburne,CA,81.75,clear sky,44.0787,-80.2041,The Retreat at the Farm
330,Dauphin,CA,77.14,haze,51.1494,-100.0502,Canway Inn & Suites
331,Inyonga,TZ,74.05,broken clouds,-6.7167,32.0667,Eden Rock Lodge
332,Olafsvik,IS,54.52,overcast clouds,64.8945,-23.7142,Hotel Olafsvik
333,Honningsvag,NO,49.75,broken clouds,70.9821,25.9704,Nordkapp Vandrerhjem
334,Sheregesh,RU,56.61,broken clouds,52.9209,87.9869,Akvilon Hotel
335,Gravdal,NO,53.49,broken clouds,68.1214,13.5031,Skreda Rorbusuiter
337,Sistranda,NO,57.9,overcast clouds,63.7256,8.834,Hotell Frøya
338,Zlobin,HR,70.9,scattered clouds,45.2924,14.6541,Hotel Bitoraj Fuzine
339,Bafoulabe,ML,81.7,overcast clouds,13.8065,-10.8321,
340,Arkhangelsk,RU,51.91,broken clouds,64.5401,40.5433,DVINA HOTEL
341,Zapresic,HR,79.93,overcast clouds,45.8564,15.8078,Country House Kamenitih Svatova
342,Umm Lajj,SA,92.66,broken clouds,25.0213,37.2685,Moon light Furnished Units
343,Los Llanos De Aridane,ES,73.15,few clouds,28.6585,-17.9182,Valle Aridane
344,San Juan Nepomuceno,CO,88.93,overcast clouds,9.9516,-75.082,HOTEL ALCAZAR DE LUCAS
345,Elizabeth City,US,73.02,broken clouds,36.2946,-76.2511,Hampton Inn Elizabeth City
346,Carlyle,US,82.44,clear sky,38.6103,-89.3726,Mariner's Village at Carlyle Lake
347,Horsham,GB,71.82,few clouds,51.064,-0.3272,Springfields Hotel
348,Likasi,CD,64.9,clear sky,-10.9814,26.7333,TABERNACLE DE LIKASI
349,Quatre Cocos,MU,69.91,light rain,-20.2078,57.7625,Sunrise Attitude Hotel
350,Wabash,US,81.48,scattered clouds,40.7978,-85.8205,"Holiday Inn Express & Suites Wabash, an IHG Hotel"
351,Kahului,US,78.84,few clouds,20.8947,-156.47,Maui Seaside Hotel
352,Key West,US,90.0,thunderstorm,24.5557,-81.7826,Fairfield Inn & Suites by Marriott Key West
353,Hluti,SZ,61.0,clear sky,-27.2167,31.6167,
355,Teya,RU,62.96,overcast clouds,60.3778,92.6267,
356,Montepuez,MZ,68.25,clear sky,-13.1256,38.9997,PembaAparthotel
357,Plainview,US,76.73,few clouds,40.7765,-73.4673,Four Points by Sheraton Melville Long Island
358,Necochea,AR,69.04,clear sky,-38.5473,-58.7368,dyd -mar Hotel
359,Lasa,IT,58.62,light rain,46.6166,10.7002,Pension Feldgärtenhof
360,Gat,IL,90.39,clear sky,31.61,34.7642,OlusHome
361,Sao Felix Do Xingu,BR,98.58,overcast clouds,-6.6447,-51.995,Rio Xingu Camping
362,Edd,ER,90.79,scattered clouds,13.9297,41.6925,
363,Hasaki,JP,73.8,clear sky,35.7333,140.8333,Hotel Sunrise Choshi
364,College,US,67.95,smoke,64.8569,-147.8028,Pike's Waterfront Lodge
365,Xining,CN,57.61,overcast clouds,36.6167,101.7667,Super Leisure Hotel
366,Makakilo City,US,77.32,clear sky,21.3469,-158.0858,Marriott's Ko Olina Beach Club
367,Kismayo,SO,75.94,light rain,-0.3582,42.5454,Agan-Hotel
368,Grindavik,IS,60.57,broken clouds,63.8424,-22.4338,Northern Light Inn & Max's Restaurant
369,Aksha,RU,56.93,overcast clouds,50.2814,113.2867,Vizit
370,Valence,ES,88.5,clear sky,39.4697,-0.3774,Only YOU Hotel Valencia
371,Saldanha,ZA,57.25,clear sky,-33.0117,17.9442,Blue Bay Lodge
372,Kibala,TD,87.75,few clouds,9.1104,18.3463,hotel safari
373,Chara,RU,57.85,broken clouds,56.9064,118.2631,
374,Sibolga,ID,75.81,broken clouds,1.7427,98.7792,Hotel Syariah CN Darussalam
375,Victoria,HK,82.45,overcast clouds,22.2855,114.1577,Mini Hotel Central
376,Athabasca,CA,73.22,overcast clouds,54.7169,-113.2854,Athabasca Lodge Motel
377,Deputatskiy,RU,38.23,few clouds,69.3,139.9,Baza Otdykha
378,Chapais,CA,67.78,clear sky,49.7834,-74.8492,Hôtel Opémiska
379,San Miguel,SV,89.2,clear sky,13.4833,-88.1833,Hotel Tropico Inn San Miguel
380,Teknaf,BD,78.76,broken clouds,20.8624,92.3058,Forestry Guesthouse
381,Huilong,CN,83.03,clear sky,31.8111,121.655,Hilton Garden Inn Qidong
382,Kiyasovo,RU,69.82,light rain,56.3491,53.1244,Гостиница Центральная
383,Traralgon,AU,50.41,overcast clouds,-38.1833,146.5333,Comfort Inn Traralgon
384,Russell,US,84.9,broken clouds,32.3502,-85.1999,Macs
385,Palmer,US,77.11,overcast clouds,42.1584,-72.3287,Wedgewood Motel
386,Arcachon,FR,69.42,broken clouds,44.5875,-1.0519,Hôtel All Suites Le Teich
387,Kungalv,SE,66.29,few clouds,57.871,11.9805,Hotell Fars Hatt
388,Haines Junction,CA,57.15,broken clouds,60.7522,-137.5108,Parkside Inn
389,Basco,PH,83.71,moderate rain,20.4487,121.9702,Nathaniel's Lodge
390,Namibe,AO,70.12,clear sky,-15.1961,12.1522,Hotel Chik Chik Namibe
391,At-Bashi,KG,58.35,overcast clouds,41.1702,75.8106,Hostel At-Bashy
392,Dingle,PH,78.19,light rain,10.9995,122.6711,SEGAYA PROPERTY
393,Dhar,IN,73.83,overcast clouds,22.6,75.3,SPOT ON 49205 Hotel Shrinath Residency
394,Norman Wells,CA,51.84,smoke,65.282,-126.8329,Heritage Hotel
395,Carrollton,US,90.25,broken clouds,32.9537,-96.8903,Days Inn by Wyndham North Dallas/Farmers Branch
396,Concarneau,FR,68.05,overcast clouds,47.875,-3.9225,Brit Hotel de L' Océan
397,Paita,PE,75.76,clear sky,-5.0892,-81.1144,Hotel Náutico de Paita
398,Acopiara,BR,93.4,broken clouds,-6.0953,-39.4525,Cantinho do Ceu Hotel
399,Vestmannaeyjar,IS,56.39,mist,63.4427,-20.2734,Glamping & Camping
400,Nyurba,RU,59.02,overcast clouds,63.2842,118.3319,Gostinitsa Alrosa
401,Trincomalee,LK,81.55,overcast clouds,8.5711,81.2335,Welcombe Hotel
402,Bolobo,CD,82.87,scattered clouds,-2.1667,16.2333,Hotel de Stephen
404,Leticia,CO,87.85,clear sky,-4.2153,-69.9406,Hotel Amazon Bed and Breakfast / Hotel Amazon B&B
405,Ust-Maya,RU,54.41,broken clouds,60.4167,134.5333,
406,Kharp,RU,64.63,overcast clouds,66.8014,65.8081,"Hotel ""Sob"""
407,Marsa Matruh,EG,84.4,clear sky,31.3525,27.2453,Beau Site
408,Presidente Epitacio,BR,78.03,overcast clouds,-21.7633,-52.1156,Hotel Itaverá
409,Mulanje,MW,62.71,scattered clouds,-16.0316,35.5,Mulanje Motel
410,Tromso,NO,52.45,light intensity drizzle,69.6496,18.957,"Radisson Blu Hotel, Tromsø"
411,Pacific Grove,US,74.16,haze,36.6177,-121.9166,Lovers Point Inn
412,Oistins,BB,87.89,scattered clouds,13.0667,-59.5333,Butterfly Beach Hotel
413,Roald,NO,64.17,scattered clouds,62.5833,6.1333,Flem Cabins
414,Kushima,JP,77.72,scattered clouds,31.4583,131.2333,Hanaoka
415,Pedra Branca,BR,90.7,broken clouds,-5.4542,-39.7172,Chácara Verçoza
416,Smirnykh,RU,53.33,overcast clouds,49.75,142.8333,Tsentral'naya
417,Tilichiki,RU,40.12,overcast clouds,60.4667,166.1,
418,Naze,JP,78.12,overcast clouds,28.3667,129.4833,Amami Port Tower Hotel
419,Esperance,AU,46.24,clear sky,-33.8667,121.9,Hospitality Esperance
420,Kashi,CN,78.31,broken clouds,39.4547,75.9797,帕米尔青年旅舍
421,Sao Gabriel,BR,65.16,overcast clouds,-30.3364,-54.32,Hotel Obino
422,Alyangula,AU,66.07,few clouds,-13.8483,136.4192,Groote Eylandt Lodge
423,Shu,KZ,77.23,clear sky,43.5983,73.7614,Shyngyzkhan
424,Christchurch,NZ,48.0,overcast clouds,-43.5333,172.6333,The George
425,Bilibino,RU,42.98,overcast clouds,68.0546,166.4372,Gostinitsa Severyanka
426,Lagoa,PT,73.18,clear sky,39.05,-27.9833,Casa Das Faias
427,Wharton,US,91.62,scattered clouds,29.3116,-96.1027,"Countryside Inn Wharton, TX"
428,Ostersund,SE,63.61,broken clouds,63.1792,14.6357,Best Western Hotel Gamla Teatern
429,Dana Point,US,96.98,clear sky,33.467,-117.6981,Laguna Cliffs Marriott Resort & Spa
430,Mayumba,GA,74.59,scattered clouds,-3.432,10.6554,LIKWALE LODGE
431,Shiroishi,JP,77.27,overcast clouds,38.0033,140.6183,Yunushi Ichijō
432,Senneterre,CA,73.62,clear sky,48.3835,-77.2328,Motel Senabi
433,Puerto Madryn,AR,67.08,clear sky,-42.7692,-65.0385,Hotel Tolosa
434,Monrovia,LR,80.37,light rain,6.3005,-10.7969,Sunset Inn
435,Sainte-Maxime,FR,75.22,overcast clouds,43.3,6.6333,Hôtel Les Jardins De Sainte Maxime
436,Farafangana,MG,67.39,overcast clouds,-22.8167,47.8333,Miarina
437,Lyantonde,UG,70.0,broken clouds,-0.4031,31.1572,Pals Panache Splendors
438,Khoy,IR,80.73,clear sky,38.5504,44.9535,ترک سل
439,Hambantota,LK,79.77,overcast clouds,6.1241,81.1185,Bungalow 63
440,Sola,VU,77.45,scattered clouds,-13.8833,167.55,Leumerus Bungalows
441,Thinadhoo,MV,82.2,overcast clouds,0.5333,72.9333,
442,Coffeyville,US,81.86,clear sky,37.0373,-95.6164,Regal Inn
443,Bozeman,US,81.21,haze,45.6796,-111.0386,Homewood Suites by Hilton Bozeman
444,Bambanglipuro,ID,75.18,light rain,-7.95,110.2833,Puri Brata
445,San Vicente,AR,74.03,few clouds,-26.6167,-54.1333,Complejo Turístico Farelluk
446,Burnie,AU,48.92,overcast clouds,-41.0667,145.9167,Beachfront Voyager Motor Inn
447,Tahe,CN,59.43,moderate rain,52.3333,124.7333,塔河宾馆
448,Nishihara,JP,80.26,broken clouds,26.1842,127.7558,Minshuku Agaihama
449,Simao,CN,64.74,broken clouds,22.7886,100.9748,Changyu Hotel
450,Kindu,CD,81.1,scattered clouds,-2.95,25.95,Résidence Okanda
451,Maniitsoq,GL,44.65,overcast clouds,65.4167,-52.9,Hotel Heilmann Lyberth
452,Imbituba,BR,67.89,broken clouds,-28.24,-48.6703,Praia Hotel Imbituba
453,Paramonga,PE,69.19,broken clouds,-10.6667,-77.8333,HOSTAL MI CHALET - PARAMONGA
454,Alamosa,US,76.66,clear sky,37.4695,-105.87,Best Western Alamosa Inn
455,Salta,AR,72.19,clear sky,-24.7859,-65.4117,Hotel Alejandro I
456,Yumen,CN,74.86,clear sky,40.2833,97.2,
457,Bad Ems,DE,71.02,broken clouds,50.3333,7.7167,Häcker´s Grand Hotel
458,Posadas,AR,73.38,clear sky,-27.3671,-55.8961,Hotel Posadas
459,Narsaq,GL,50.22,light rain,60.9167,-46.05,Narsaq Kayak Hostel
460,Mamallapuram,IN,89.65,overcast clouds,12.6264,80.1722,Radisson Blu Resort Temple Bay Mamallapuram
461,Wewak,PG,77.85,scattered clouds,-3.5534,143.6268,In Wewak Boutique Hotel
462,Abu Samrah,SY,91.47,few clouds,35.3029,37.1841,
463,Nizwa,OM,99.39,broken clouds,22.9333,57.5333,Orient Apartments
465,Tonj,SS,75.07,light rain,7.2737,28.6822,
466,Farmington,US,87.78,clear sky,36.7281,-108.2187,Courtyard by Marriott Farmington
467,Algiers,DZ,80.42,clear sky,36.7525,3.042,Sofitel Algiers Hamma Garden
468,Nakatsu,JP,82.29,few clouds,33.5981,131.1883,Toyoko Inn Oita Nakatsu Ekimae
469,Aitape,PG,76.24,broken clouds,-3.1374,142.3475,
470,Sabha,LY,96.82,clear sky,27.0377,14.4283,Foundation Taaj Asala for Historical Research and Archeology
471,General Roca,AR,59.4,clear sky,-39.0333,-67.5833,Hotel y Casino del Río General Roca
472,Cidreira,BR,61.32,overcast clouds,-30.1811,-50.2056,Hotel Castelo
474,Hamina,FI,63.68,overcast clouds,60.5697,27.1979,SpaHotel Hamina
475,Tura,IN,74.86,overcast clouds,25.5198,90.2201,Hotel RIKMAN Continental
476,Balkanabat,TM,94.66,broken clouds,39.5108,54.3671,Nebitchi Hotel
477,Nemuro,JP,66.96,overcast clouds,43.3236,145.575,Hotel Nemuro Kaiyoutei
478,Bonavista,CA,75.2,overcast clouds,48.6499,-53.1147,Abbott's Bed & Breakfast
479,Caravelas,BR,71.11,overcast clouds,-17.7125,-39.2481,Pousada dos Navegantes
480,Galveston,US,91.18,thunderstorm with rain,29.3669,-94.9669,Comfort Inn & Suites Texas City
481,Kandhla,IN,80.83,few clouds,29.3167,77.2667,श्री निराकार मंदिर सैनी निवास
482,Sorland,NO,53.67,overcast clouds,67.667,12.6934,Sjybrygga fiskecamp
483,Raga,SS,72.07,scattered clouds,8.4596,25.678,
484,Dawson Creek,CA,71.24,clear sky,55.7666,-120.2362,Peace Villa Motel
485,Miri,MY,78.94,few clouds,4.4148,114.0089,"Mega Hotel, Miri"
486,Zhigansk,RU,58.37,scattered clouds,66.7697,123.3711,Gostinichnyy Kompleks Aylgy
487,Durban,ZA,67.01,clear sky,-29.8579,31.0292,Hilton Durban
488,Lavrentiya,RU,55.0,overcast clouds,65.5833,-171.0,
489,Terrak,NO,57.22,overcast clouds,65.087,12.3715,Plahte properties
490,Svetlogorsk,BY,65.21,overcast clouds,52.6333,29.7333,Hotel Svetlogorsk JBIK
491,Sattahip,TH,86.99,few clouds,12.6664,100.9007,Pob Choke Residences ( พบโชคเรดซิเด้นท์ )
492,Karpogory,RU,56.73,scattered clouds,64.0019,44.4451,Hotel Pinezhskaya Sloboda
493,Linhai,CN,79.93,heavy intensity rain,28.85,121.1167,Linhai S&N International Hotel
494,Oksfjord,NO,53.67,light rain,70.2396,22.3479,
495,Araguaina,BR,98.82,overcast clouds,-7.1911,-48.2072,Hotel São Vicente
496,Villamontes,BO,78.24,scattered clouds,-21.25,-63.5,Hotel Raldes
497,Kiama,AU,56.37,few clouds,-34.6833,150.8667,The Sebel Kiama Harbourside
498,Cabedelo,BR,75.87,broken clouds,-6.9811,-34.8339,Hotel Pigalle
499,Pekan,MY,78.91,broken clouds,3.4836,103.3996,Pekan Budget Hotel
500,Mayma,RU,59.67,scattered clouds,52.0197,85.9114,Usadba Bereg Mechty
501,Marsh Harbour,BS,84.24,overcast clouds,26.5412,-77.0636,Abaco Beach Resort
502,Aykhal,RU,58.33,clear sky,66.0,111.5,
503,Tortoli,IT,90.99,clear sky,39.9256,9.6572,Hotel La Bitta
504,Isiolo,KE,69.4,broken clouds,0.3546,37.5822,Gaddisa Hotel
505,Bilma,NE,98.74,scattered clouds,18.6853,12.9164,Expeditions Ténére voyages
506,Mananjary,MG,67.06,broken clouds,-21.2167,48.3333,Vahiny Lodge
507,Tanout,NE,95.38,overcast clouds,14.9709,8.8879,
508,Saint-Augustin,CA,71.15,scattered clouds,51.226,-58.6502,
509,Nezhinka,RU,86.16,clear sky,51.7676,55.3694,"Extreme Park, Holiday Village"
510,Beloha,MG,64.44,clear sky,-25.1667,45.05,
511,Shubarshi,KZ,85.78,overcast clouds,48.5872,57.1869,
512,Aklavik,CA,59.83,haze,68.2191,-135.0107,Aklavik Inn
513,Batagay,RU,46.0,broken clouds,67.6333,134.6333,Gostinitsa Ki'ileekh
514,Porkhov,RU,60.69,overcast clouds,57.765,29.5561,Hotel Parking
515,Suez,EG,90.88,clear sky,29.9737,32.5263,Green House
516,Qiongshan,CN,80.58,clear sky,20.0058,110.3542,Sun City Restaurant
517,Cuamba,MZ,66.99,clear sky,-14.8031,36.5372,Hotel Vision
518,Rocha,UY,63.09,few clouds,-34.4833,-54.3333,Beleza Pura B&B
519,Leningradskiy,RU,38.5,overcast clouds,69.3833,178.4167,Gostinitsa
520,Kalmunai,LK,81.77,overcast clouds,7.4167,81.8167,VS Villa
521,Pangkalanbuun,ID,74.91,overcast clouds,-2.6833,111.6167,Grand Kecubung Hotel
522,Plouzane,FR,64.58,clear sky,48.3833,-4.6167,Carrefour Voyages Plouzané
523,Manggar,ID,81.77,broken clouds,-2.8833,108.2667,Guest Hotel
524,Maloy,NO,64.87,overcast clouds,61.9353,5.1136,Torget Hotell
525,Tabas,IR,92.82,few clouds,33.5959,56.9244,شرکت معماری مهراز شایگان آراد
526,Elat,IL,98.44,few clouds,29.5581,34.9482,Club Hotel Eilat
527,Camara De Lobos,PT,79.72,scattered clouds,32.6333,-16.9667,Golden Residence Hotel
528,Bay Roberts,CA,75.65,broken clouds,47.5999,-53.2648,Stonewall Inn
529,Fuyu,CN,68.9,broken clouds,45.1833,124.8167,Education Hostel
530,Volchikha,RU,60.94,scattered clouds,52.0333,80.3833,Gostinitsa
531,Mapiripan,CO,82.02,broken clouds,2.8892,-72.1256,Monserrate
532,Sabang,ID,82.94,overcast clouds,5.8933,95.3214,Hotel Citra
533,Mumford,GH,76.96,broken clouds,5.2618,-0.759,Spanish Villa
534,Marmaris,TR,98.55,clear sky,36.855,28.2742,Hawaii Hotel
535,Tucuman,AR,69.8,few clouds,-26.8241,-65.2226,HOTEL MIAMI
537,Ekibastuz,KZ,68.43,overcast clouds,51.6667,75.3667,
538,Flinders,AU,56.17,few clouds,-34.5833,150.8552,Shellharbour Resort & Conference Centre
539,Blackwater,AU,48.33,clear sky,-23.5833,148.8833,Blackwater Motor Inn
540,Nelson Bay,AU,53.76,clear sky,-32.7167,152.15,Mantra Nelson Bay
541,Yangcun,CN,79.0,broken clouds,39.3639,117.0603,Hanting Express Tianjin Wuqing Jingjin Road
542,Estevan,CA,79.14,clear sky,49.1334,-102.9842,"Motel 6 Estevan, SK"
543,Mana,GF,84.83,few clouds,5.6592,-53.7767,LE SAMANA
544,Ondjiva,AO,68.13,clear sky,-17.0667,15.7333,SOS Motel
545,Camacha,PT,72.82,broken clouds,33.0833,-16.3333,Hotel Porto Santo & Spa
546,Sheridan,US,84.69,clear sky,44.8333,-106.9173,Comfort Inn & Suites
547,Wanning,CN,80.69,overcast clouds,18.8003,110.3967,Paradise Hotel
548,Yar-Sale,RU,61.52,few clouds,66.8333,70.8333,Yalemd
549,Blagoyevo,RU,55.47,broken clouds,63.3667,47.9167,
550,Sao Jose Da Coroa Grande,BR,75.97,overcast clouds,-8.8978,-35.1478,Crôa Mares Hotel
551,Domoni,KM,75.78,few clouds,-12.2569,44.5319,Al Djadid
552,Fairbanks,US,68.09,smoke,64.8378,-147.7164,Westmark Fairbanks Hotel & Conference Center
553,Evensk,RU,43.54,overcast clouds,61.95,159.2333,
554,Breytovo,RU,59.47,broken clouds,58.2993,37.8617,"The recreation center ""Sitinsky Beach"""
555,Bafq,IR,92.93,broken clouds,31.6128,55.4107,Alamdar Hotel
556,Westerland,DE,67.01,clear sky,54.9079,8.3033,Dorint Strandhotel & Spa Westerland / Sylt
557,Yerbogachen,RU,57.22,broken clouds,61.2767,108.0108,
558,Vallenar,CL,76.1,scattered clouds,-28.5708,-70.7581,Humacao Bed & Breakfast
559,Khandyga,RU,52.59,clear sky,62.6667,135.6,Apel'sin
560,Namatanai,PG,78.42,scattered clouds,-3.6667,152.4333,Seagulls Inn Namatani
561,Tongchuan,CN,80.38,overcast clouds,35.0806,109.0897,Tongchuan Hotel
562,Shieli,KZ,84.36,clear sky,44.1667,66.75,Gostinitsa Aybek Shieli
563,Ha Giang,VN,79.66,overcast clouds,22.8333,104.9833,Truong Xuan Ecolodge
564,Ulaanbaatar,MN,48.33,scattered clouds,47.9077,106.8832,The Blue Sky Hotel and Tower
565,Miles City,US,86.5,haze,46.4083,-105.8406,FairBridge Inn & Suites Miles City
566,Wuwei,CN,72.32,overcast clouds,37.9281,102.6414,Thank Inn Chain Hotel gansu wuwei liangzhou district xiguan middle road
567,Baharampur,IN,80.38,light rain,24.1,88.25,The Sugarr & Spice Roopkatha
568,Nurota,UZ,86.09,broken clouds,40.5614,65.6886,Guest House Ruslan Nurata & Tours
569,Skelleftea,SE,66.99,scattered clouds,64.7507,20.9528,Quality Hotel Skellefteå Stadshotell
570,Coihaique,CL,45.21,clear sky,-45.5752,-72.0662,Diego De Almagro Coyhaique
571,Komsomolskiy,UZ,86.72,broken clouds,40.4272,71.7189,Ikathouse
572,Nuuk,GL,57.81,scattered clouds,64.1835,-51.7216,Vandrehuset
573,Sidney,AU,50.95,clear sky,-33.8679,151.2073,The Grace Sydney
574,Varhaug,NO,62.78,scattered clouds,58.6147,5.6457,Jonas Bue
575,Chicama,PE,64.94,scattered clouds,-7.8447,-79.1469,Balihai Bungalows
576,Yanai,JP,82.62,scattered clouds,33.9667,132.1167,Yanai City Hotel
577,Nashville,US,85.73,clear sky,36.1659,-86.7844,Sheraton Grand Nashville Downtown
578,Jawa,JO,86.31,haze,31.8525,35.9393,دار الحاج عبدالله ابو صعيليك واولاده
579,Thunder Bay,CA,85.28,smoke,48.4001,-89.3168,Victoria Inn Hotel and Convention Centre
580,Severo-Yeniseyskiy,RU,58.32,broken clouds,60.3725,93.0408,Aktolik
583,Dabakala,CI,79.65,light rain,8.3667,-4.4333,Hôtel Campement
584,Pouembout,NC,63.14,broken clouds,-21.1333,164.9,Camping de Tipenga
585,Mandla,IN,73.87,overcast clouds,22.6,80.3833,Bison Resort
586,Antalaha,MG,67.21,clear sky,-14.9003,50.2788,Hotel Vitasoa
587,Morondava,MG,73.36,clear sky,-20.2833,44.2833,La Case Bambou
588,Kralendijk,BQ,87.78,clear sky,12.15,-68.2667,Divi Flamingo Beach Resort & Casino
589,Dodge City,US,86.25,haze,37.7528,-100.0171,Windsor Inn & Suites
590,Port Hawkesbury,CA,78.91,clear sky,45.6169,-61.3485,MacKenzie House Tourist Home B&B
591,Juba,SS,77.25,few clouds,4.8517,31.5825,ROYAL PALACE HOTEL - JUBA
592,Markova,UA,69.39,broken clouds,48.6758,24.4138,Vas.VOM
593,Eatonton,US,86.77,scattered clouds,33.3268,-83.3885,Western Motel of Eatonton
594,Mosina,PL,70.34,few clouds,52.2454,16.8471,HOT_elarnia HOTEL i SPA
595,Hudson Bay,CA,70.27,overcast clouds,52.85,-102.3842,Norwood Motel LTD
596,Ntcheu,MW,58.35,clear sky,-14.8203,34.6359,Dear Executive Lodge
597,Huangpi,CN,84.31,clear sky,30.8845,114.3779,Xinxing Lidu Hotel
598,Berdigestyakh,RU,58.53,overcast clouds,62.0989,126.6992,
599,Quesnel,CA,68.5,clear sky,52.9999,-122.5029,Ramada by Wyndham Quesnel
600,Gazli,UZ,95.07,few clouds,40.1333,63.45,
601,Mpongwe,ZM,63.32,clear sky,-13.5091,28.155,GCMF Office & Lodge
602,Bull Savanna,JM,85.96,scattered clouds,17.8868,-77.5902,Big Red's
603,Dutlwe,BW,61.52,clear sky,-23.9833,23.9,
604,Taitung,TW,79.57,overcast clouds,22.7583,121.1444,Taitung Bali Suites Hotel
605,Chesma,RU,68.02,broken clouds,53.8111,60.6533,Gostinitsa
606,Sandakan,MY,78.48,few clouds,5.8402,118.1179,Hotel Sandakan
607,Qui Nhon,VN,85.03,overcast clouds,13.7667,109.2333,Hoang Yen Canary Hotel
608,Acari,PE,78.82,few clouds,-15.4311,-74.6158,HOSPEDAJE XIMENA
609,Bontang,ID,76.87,broken clouds,0.1333,117.5,KOPKAR Hotel Bintang Sintuk
610,Phu Ly,VN,81.48,overcast clouds,20.5411,105.9139,5 Star Apartment Central Phu Ly
611,Solnechnyy,RU,53.19,overcast clouds,50.7214,136.6319,Hotel complex Pastoral
612,Raudeberg,NO,64.0,overcast clouds,61.9875,5.1352,Nordre Silda.
613,Novaya Bryan,RU,56.17,few clouds,51.7159,108.2691,
614,Lodja,CD,87.26,broken clouds,-3.4833,23.4333,
615,Borogontsy,RU,58.32,clear sky,62.6683,131.1683,
616,Guerrero Negro,MX,82.0,clear sky,27.9769,-114.0611,"Casa Laguna, Bed & Breakfast"
617,Lata,PT,83.05,few clouds,40.1629,-8.3327,Casa Maquia
618,Port Hedland,AU,71.65,scattered clouds,-20.3167,118.5667,The Esplanade Hotel
619,La Ronge,CA,71.82,smoke,55.1001,-105.2842,Northland Motor Hotel
620,Tongzi,CN,79.52,scattered clouds,28.7829,105.0877,
621,Herat,AF,84.92,clear sky,34.5,62.0,
622,Broken Hill,AU,46.11,scattered clouds,-31.95,141.4333,Royal Exchange Hotel
623,Alta Floresta,BR,96.62,clear sky,-9.8756,-56.0861,Floresta Amazonica Hotel
624,Weihai,CN,76.73,scattered clouds,37.5017,122.1136,Beihai Travel Resort
625,Berlevag,NO,48.2,broken clouds,70.8578,29.0864,Kvitbrakka
626,Nikolsk,RU,62.04,scattered clouds,53.7189,46.0712,Гостиница Центральная
627,Paamiut,GL,45.72,light rain,61.994,-49.6678,Hotel Ivaana
628,Guilin,CN,80.71,overcast clouds,25.2819,110.2864,Grand 0773 Hotel
629,Hanmer Springs,NZ,39.83,overcast clouds,-42.5167,172.8167,The Chalets Motel
630,Nantucket,US,72.01,moderate rain,41.2835,-70.0995,Jared Coffin House
631,Tambura,SS,69.87,light rain,5.6,27.4667,Rikito Lodge
632,Sosnovo-Ozerskoye,RU,51.55,broken clouds,52.5249,111.5418,
633,Yangambi,CD,75.78,few clouds,0.8102,24.4336,
634,Lerik,AZ,72.32,clear sky,38.7726,48.4128,9 QARDAŞ
635,Great Yarmouth,GB,69.35,clear sky,52.6083,1.7305,Comfort Hotel Great Yarmouth
636,Half Moon Bay,US,76.82,scattered clouds,37.4636,-122.4286,"The Ritz-Carlton, Half Moon Bay"
637,Manta,EC,78.58,broken clouds,-0.95,-80.7333,Balandra Hotel
638,Srednekolymsk,RU,37.38,overcast clouds,67.45,153.6833,
639,Tawala,PH,83.75,overcast clouds,9.5542,123.7696,Panglao Regents Park Resort
640,Solano,US,80.71,clear sky,38.2333,-121.9511,Travis AFB FamCamp
641,Prince Rupert,CA,64.49,light rain,54.3161,-130.3201,Crest Hotel
642,Kurilsk,RU,59.16,moderate rain,45.2333,147.8833,City of Kurilsk
643,Senanga,ZM,65.88,clear sky,-16.1167,23.2667,Zango lodge
644,Husavik,IS,57.11,broken clouds,66.0449,-17.3389,Bjarnabúð
645,Lidzbark Warminski,PL,59.0,overcast clouds,54.1259,20.5795,Hotel Krasicki
646,Sibu,MY,75.51,scattered clouds,2.3,111.8167,RH HOTEL (4 Star)
647,Antsirabe,MG,50.63,broken clouds,-19.85,47.0333,Antsirabe Hotel
648,Pirapozinho,BR,71.08,clear sky,-22.2753,-51.5,São Paulo
649,Puerto Escondido,MX,85.03,broken clouds,15.85,-97.0667,Aldea del Bazar Hotel and Spa
650,Marfino,RU,62.87,clear sky,55.7028,37.3822,Nemchinovka-Park
651,Bathsheba,BB,88.41,scattered clouds,13.2167,-59.5167,Atlantis Hotel
652,Atmakur,IN,80.89,overcast clouds,15.8833,78.5833,Mee seva atk
653,Kieta,PG,77.54,few clouds,-6.2167,155.6333,Uruna Bay Retreat
654,Kaminskiy,RU,61.59,few clouds,57.1516,41.4732,
655,Taltal,CL,64.54,clear sky,-25.4,-70.4833,Residencial Karime
656,Norheimsund,NO,65.16,overcast clouds,60.3709,6.1456,Hardangerfjord Hotel
657,Parana,AR,72.55,clear sky,-31.732,-60.5238,Howard Johnson by Wyndham Plaza Hotel Mayorazgo
658,Vilcun,CL,57.94,few clouds,-38.65,-72.2333,"Rayen-Co, Rural Tourism"
659,Shipunovo,RU,59.43,broken clouds,52.1582,82.2173,
660,Saint-Marc,HT,86.22,overcast clouds,19.1082,-72.6938,Maguana Hotel
661,Sonderso,DK,68.58,clear sky,55.4853,10.2554,Plougheld
662,Tefe,BR,87.91,few clouds,-3.3542,-64.7114,Aracati Hotel
663,Tautira,PF,78.82,broken clouds,-17.7333,-149.15,Pension Oaoa
664,Naryan-Mar,RU,66.27,broken clouds,67.6713,53.087,Hostel Agat
665,Ambagarh Chauki,IN,76.75,overcast clouds,20.7833,80.7167,Hunesh kunjam home ....
666,Dunkwa,GH,75.87,light rain,5.9656,-1.78,Tim Freeman Gold City Hotel
667,Ust-Nera,RU,45.27,few clouds,64.5667,143.2,Hotel Ust-Nera
668,Harper,LR,77.74,broken clouds,4.375,-7.7169,Screensaver
669,Goianesia,BR,89.64,broken clouds,-15.3175,-49.1175,Kamur Plaza Hotel - Goianésia
670,Echternach,LU,68.61,broken clouds,49.8056,6.4222,Bel Air
671,Tambun,ID,80.47,few clouds,-6.2641,107.0712,@HOM Premiere Tambun
672,Okitipupa,NG,75.92,overcast clouds,6.5047,4.7839,Coastal Hotel & Suites
673,Quelimane,MZ,71.55,clear sky,-17.8786,36.8883,Hotel Flamingo
674,Lewistown,US,84.18,overcast clouds,40.5992,-77.5714,Quality Inn & Suites
675,Buriti Bravo,BR,96.67,scattered clouds,-5.8372,-43.8336,Hotel Fazenda
676,The Valley,AI,85.82,few clouds,18.217,-63.0578,CeBlue Villas & Beach Resort
677,Yalta,UA,78.62,few clouds,44.5,34.1667,Yalta-Inturist
678,Pangnirtung,CA,51.8,light rain,66.1451,-65.7125,Kilabuk Lodge
679,Hagersville,CA,82.71,clear sky,42.9668,-80.0497,
680,Zion,US,84.92,haze,42.4461,-87.8328,"Country Inn & Suites by Radisson, Zion, IL"
681,Fuyang,CN,77.41,light rain,32.9,115.8167,Fuyang Wanda Realm Hotel
682,Beroroha,MG,71.06,few clouds,-21.6667,45.1667,
683,Miguel Hidalgo,MX,69.73,scattered clouds,19.4225,-99.2028,JW Marriott Hotel Mexico City
684,Palaikastron,GR,83.08,clear sky,35.2,26.25,Marina Village
685,Villarrica,PY,77.27,broken clouds,-25.75,-56.4333,Mansión Reljuv Tours SA
686,Banda,IN,79.79,overcast clouds,25.4833,80.3333,Hotel Comfort-Inn
687,Sal Rei,CV,79.36,light intensity drizzle,16.1833,-22.9167,Marine Club Beach Resort
688,Daytona Beach,US,87.3,broken clouds,29.2108,-81.0228,"Holiday Inn Resort Daytona Beach Oceanfront, an IHG Hotel"
689,Hualmay,PE,68.83,scattered clouds,-11.0964,-77.6139,Hotel Villa Kitzia Huacho
690,Itarema,BR,85.89,scattered clouds,-2.9248,-39.9167,"Sea Lounge! Bar, Club & Restaurant"
691,Uvira,CD,77.83,broken clouds,-3.4067,29.1458,Hotel Suzana
692,Katangli,RU,51.96,heavy intensity rain,51.7102,143.2326,
693,Bonthe,SL,81.16,overcast clouds,7.5264,-12.505,Bonthe Holiday Village
694,Road Town,VG,87.89,scattered clouds,18.4167,-64.6167,"ZINGARA 76ft Catamaran, full crew-all included"
695,Katsuura,JP,77.14,clear sky,35.1333,140.3,Katsuura Hotel Mikazuki
696,Dryden,CA,82.69,scattered clouds,49.7833,-92.7503,"Holiday Inn Express Dryden, an IHG Hotel"
697,Vredendal,ZA,53.69,few clouds,-31.6683,18.5012,Tharrakamma Guest House
698,Vila,PT,72.73,clear sky,42.0304,-8.1588,Hotel Castrum Villae by Walk Hotels
699,Kushiro,JP,68.67,broken clouds,42.975,144.3747,Toyoko Inn Kushiro Jujigai
700,Salalah,OM,80.69,broken clouds,17.0151,54.0924,HAMDAN PLAZA HOTEL SALALAH
701,Rapar,IN,82.98,broken clouds,23.5667,70.6333,Dharamshi Bapa’s Home
702,Morant Bay,JM,90.63,overcast clouds,17.8815,-76.4093,Whispering Bamboo Cove Resort
703,Laranjeiras Do Sul,BR,70.81,few clouds,-25.4078,-52.4161,Hotel Palmeiras
704,Jumla,NP,63.81,overcast clouds,29.2747,82.1838,"अन्नी घर, जुम्ला - Anni Ghar"
705,Shache,CN,79.74,broken clouds,38.4167,77.2406,Delong Hotel
706,Zima,RU,58.82,scattered clouds,53.9202,102.0442,
707,Pathein,MM,78.46,overcast clouds,16.7833,94.7333,New Pammawaddy Hotel
708,Japura,ID,74.97,overcast clouds,-0.3167,102.35,Rumah mbah Jamah
